City_ID,City,Country,Lat,Lng,Max Temp,Humidity,Cloudiness,Wind Speed,Current Description
0,Tuktoyaktuk,CA,69.45,-133.04,42.8,70,20,9.17,few clouds
1,West Odessa,US,31.84,-102.5,91.4,27,1,17.22,clear sky
2,Geraldton,AU,-28.77,114.6,59.0,82,90,16.11,overcast clouds
3,Busselton,AU,-33.65,115.33,46.99,95,25,1.99,light rain
4,Talnakh,RU,69.49,88.4,44.6,93,73,8.95,broken clouds
5,Cherskiy,RU,68.75,161.3,47.61,53,75,13.94,broken clouds
6,Sambava,MG,-14.27,50.17,65.64,80,0,8.57,clear sky
7,Cape Town,ZA,-33.93,18.42,57.2,82,0,6.93,clear sky
8,Bluff,NZ,-46.6,168.33,45.0,72,75,11.01,broken clouds
9,Atuona,PF,-9.8,-139.03,78.42,74,85,17.65,overcast clouds
10,Qaanaaq,GL,77.48,-69.36,23.88,82,0,2.66,clear sky
11,Port Hardy,CA,50.7,-127.42,62.6,88,75,9.17,broken clouds
12,Axim,GH,4.87,-2.24,75.09,87,51,7.78,broken clouds
13,La Palma,US,33.85,-118.05,111.99,17,1,4.7,clear sky
14,Puerto Ayora,EC,-0.74,-90.35,68.0,89,88,5.99,overcast clouds
15,Rikitea,PF,-23.12,-134.97,73.42,84,0,12.62,clear sky
16,Kuytun,RU,54.34,101.5,43.57,88,61,8.77,broken clouds
17,Provideniya,RU,64.38,-173.3,42.8,70,75,20.13,broken clouds
18,Ushuaia,AR,-54.8,-68.3,41.0,80,20,6.93,few clouds
19,Quthing,LS,-30.4,27.7,53.89,76,81,3.22,light rain
20,Nouadhibou,MR,20.93,-17.03,80.6,61,100,12.75,overcast clouds
21,East London,ZA,-33.02,27.91,63.16,82,100,3.6,overcast clouds
22,Mataura,NZ,-46.19,168.86,45.0,72,49,11.01,scattered clouds
23,Kodiak,US,57.79,-152.41,55.4,93,90,20.8,heavy intensity rain
24,Mount Isa,AU,-20.73,139.5,77.0,33,0,9.17,clear sky
25,Codrington,AU,-38.27,141.97,57.22,65,20,23.09,few clouds
26,Fraga,ES,41.52,0.35,66.0,67,61,6.93,broken clouds
27,Jamestown,US,42.1,-79.24,68.0,63,1,5.82,clear sky
28,Dikson,RU,73.51,80.55,41.99,81,70,20.07,broken clouds
29,Crixas,BR,-14.55,-49.97,79.45,24,0,0.4,clear sky
30,Berlevag,NO,70.86,29.09,50.0,87,75,236.0,broken clouds
31,Calvinia,ZA,-31.47,19.78,53.62,53,0,6.96,clear sky
32,Anloga,GH,5.79,0.9,77.0,88,40,12.75,scattered clouds
33,Butaritari,KI,3.07,172.79,83.89,72,100,18.41,overcast clouds
34,Kuchinarai,TH,16.54,104.05,82.0,94,20,4.7,few clouds
35,Porto Novo,BJ,6.5,2.6,75.27,84,84,7.2,broken clouds
36,Bengkulu,ID,-3.8,102.27,75.02,90,100,6.87,overcast clouds
37,Goundam,ML,16.41,-3.67,90.9,44,12,5.39,few clouds
38,Thompson,CA,55.74,-97.86,48.2,57,75,12.75,broken clouds
39,Xai-Xai,MZ,-25.05,33.64,61.56,87,0,3.83,clear sky
40,Cayenne,GF,4.93,-52.33,80.6,78,26,3.36,scattered clouds
41,Hilo,US,19.73,-155.09,87.8,55,1,3.36,clear sky
42,Pacifica,US,37.61,-122.49,104.0,27,1,17.22,haze
43,Avarua,CK,-21.21,-159.78,73.4,60,35,8.05,scattered clouds
44,Bud,US,39.45,-86.18,77.0,60,1,10.29,clear sky
45,Beirut,LB,33.89,35.49,82.4,78,0,3.36,clear sky
46,Anadyr,RU,64.75,177.48,48.2,93,75,11.18,light intensity shower rain
47,Rio Gallegos,AR,-51.62,-69.22,46.4,61,80,8.05,broken clouds
48,Sibolga,ID,1.74,98.78,76.1,74,97,4.0,overcast clouds
49,Port Alfred,ZA,-33.59,26.89,59.0,86,28,5.19,scattered clouds
50,Biltine,TD,14.53,20.92,78.51,73,3,6.98,clear sky
51,Pevek,RU,69.7,170.31,43.09,71,0,15.32,clear sky
52,Durango,MX,24.83,-104.83,64.63,78,100,6.67,overcast clouds
53,Airai,TL,-8.93,125.41,62.96,54,21,3.76,few clouds
54,Coquimbo,CL,-29.95,-71.34,55.4,76,90,8.05,overcast clouds
55,Clyde River,CA,70.47,-68.59,39.2,64,40,17.22,scattered clouds
56,Hermanus,ZA,-34.42,19.23,55.99,81,5,10.76,clear sky
57,Mar Del Plata,AR,-38.0,-57.56,46.0,81,2,4.7,clear sky
58,Punta Arenas,CL,-53.15,-70.92,44.6,70,75,8.05,broken clouds
59,Port-Gentil,GA,-0.72,8.78,77.0,78,40,10.38,scattered clouds
60,Sobolevo,RU,54.43,31.9,60.46,97,100,2.77,light rain
61,Yaring,TH,6.87,101.37,77.81,85,100,7.67,heavy intensity rain
62,Alto Longa,BR,-5.25,-42.21,81.5,31,61,2.73,broken clouds
63,Phangnga,TH,8.45,98.53,77.0,94,20,2.24,few clouds
64,Albany,US,42.6,-73.97,73.99,63,34,0.72,scattered clouds
65,Narsaq,GL,60.92,-46.05,44.6,87,98,1.12,overcast clouds
66,Kapaa,US,22.08,-159.32,86.0,62,20,16.11,few clouds
67,Kavieng,PG,-2.57,150.8,83.12,78,56,13.42,light rain
68,Isangel,VU,-19.55,169.27,75.92,72,99,13.04,overcast clouds
69,Araouane,ML,18.9,-3.53,94.51,34,0,16.93,clear sky
70,Leningradskiy,RU,69.38,178.42,45.16,60,2,8.12,clear sky
71,Sao Lourenco Do Sul,BR,-31.37,-51.98,55.99,86,100,3.0,overcast clouds
72,Castro,BR,-24.79,-50.01,65.52,57,0,4.85,clear sky
73,Truro,GB,50.27,-5.05,57.99,93,67,5.82,broken clouds
74,Cabo San Lucas,MX,22.89,-109.91,84.99,69,40,16.11,scattered clouds
75,Tessalit,ML,20.2,1.01,91.0,30,34,5.59,scattered clouds
76,Nikolskoye,RU,59.7,30.79,54.0,87,6,4.47,clear sky
77,Bima,ID,-8.47,118.72,74.77,81,20,3.94,few clouds
78,Chuy,UY,-33.7,-53.46,49.32,87,8,7.96,clear sky
79,Terrace Bay,CA,48.78,-87.1,56.91,98,100,23.35,overcast clouds
80,Marsh Harbour,BS,26.54,-77.06,84.4,70,100,9.8,overcast clouds
81,Ilave,PE,-16.08,-69.67,49.57,60,48,9.44,scattered clouds
82,Vaini,TO,-21.2,-175.2,73.4,69,75,21.21,broken clouds
83,Hobart,AU,-42.88,147.33,61.0,58,72,9.17,broken clouds
84,Edd,ER,13.93,41.69,89.71,57,19,1.14,few clouds
85,Vila Velha,BR,-20.33,-40.29,77.0,83,0,16.11,clear sky
86,Tiksi,RU,71.69,128.87,43.34,87,98,5.08,overcast clouds
87,Namibe,AO,-15.2,12.15,67.1,89,62,2.35,broken clouds
88,Guerrero Negro,MX,27.98,-114.06,93.74,37,0,12.75,clear sky
89,Saint-Philippe,RE,-21.36,55.77,66.2,72,40,6.93,scattered clouds
90,Salalah,OM,17.02,54.09,78.8,88,75,6.93,broken clouds
91,Puri,IN,19.8,85.85,82.4,88,40,12.53,haze
92,Chokurdakh,RU,70.63,147.92,44.6,60,1,9.28,clear sky
93,Peleduy,RU,59.63,112.74,55.17,90,100,6.26,overcast clouds
94,Tasiilaq,GL,65.61,-37.64,37.4,93,79,11.41,mist
95,Seymchan,RU,62.88,152.43,51.37,72,72,2.17,broken clouds
96,Kanbe,MM,16.71,96.0,78.8,94,75,1.12,broken clouds
97,Ferme-Neuve,CA,46.7,-75.45,56.53,74,85,3.36,overcast clouds
98,Ponta Do Sol,PT,32.67,-17.1,73.4,73,20,6.93,few clouds
99,Sitka,US,57.05,-135.33,60.8,72,40,6.93,scattered clouds
100,Suzhou,CN,31.31,120.62,80.01,67,0,13.11,clear sky
101,Kamiiso,JP,41.82,140.65,75.2,88,75,2.24,broken clouds
102,Madikeri,IN,12.42,75.73,65.93,100,99,1.81,overcast clouds
103,Norman Wells,CA,65.28,-126.83,55.4,54,75,10.29,broken clouds
104,Monterey,US,36.25,-121.25,113.0,29,1,12.75,clear sky
105,Sioux Lookout,CA,50.1,-91.92,60.8,82,40,8.05,scattered clouds
106,Bredasdorp,ZA,-34.53,20.04,48.2,93,3,3.36,clear sky
107,Lafiagi,NG,8.87,5.42,73.56,93,38,3.56,scattered clouds
108,Barrow,US,71.29,-156.79,37.4,93,90,13.87,mist
109,Hambantota,LK,6.12,81.12,79.74,71,100,18.97,overcast clouds
110,Georgetown,MY,5.41,100.34,80.6,94,40,4.68,light rain
111,Carnarvon,AU,-24.87,113.63,66.2,100,40,5.82,scattered clouds
112,Kachiry,KZ,53.07,76.1,42.78,78,45,8.57,scattered clouds
113,Powell River,CA,49.85,-124.54,75.0,64,75,11.41,broken clouds
114,New Norfolk,AU,-42.78,147.06,59.0,56,72,3.0,broken clouds
115,Moura,PT,38.14,-7.45,71.6,53,0,6.93,clear sky
116,Srednekolymsk,RU,67.45,153.68,51.69,74,100,2.77,overcast clouds
117,Quatre Cocos,MU,-20.21,57.76,69.8,88,75,5.82,light intensity shower rain
118,Upernavik,GL,72.79,-56.15,36.1,83,98,12.15,overcast clouds
119,Husavik,IS,66.04,-17.34,55.4,76,75,18.34,broken clouds
120,Puerto Baquerizo Moreno,EC,-0.9,-89.6,66.27,87,83,11.01,broken clouds
121,Altay,CN,47.87,88.12,54.21,64,98,5.23,overcast clouds
122,Kununurra,AU,-15.77,128.73,73.4,70,90,3.36,overcast clouds
123,Disna,BY,55.57,28.2,51.94,94,56,5.23,broken clouds
124,Ust-Karsk,RU,52.7,118.81,54.1,77,0,1.12,clear sky
125,Los Llanos De Aridane,ES,28.66,-17.92,73.4,78,20,6.93,few clouds
126,Lorengau,PG,-2.02,147.27,84.2,77,10,12.66,clear sky
127,Arraial Do Cabo,BR,-22.97,-42.03,72.84,83,0,18.99,clear sky
128,Kaohsiung,TW,22.62,120.31,79.0,88,40,2.24,scattered clouds
129,Sinnamary,GF,5.38,-52.95,79.14,86,74,10.69,broken clouds
130,Ancud,CL,-41.87,-73.82,50.0,80,0,3.09,clear sky
131,Havelock,US,34.88,-76.9,81.0,68,48,8.99,scattered clouds
132,Hamilton,US,39.18,-84.53,80.6,57,1,8.05,clear sky
133,Nemuro,JP,43.32,145.57,68.34,95,88,9.6,overcast clouds
134,Ilulissat,GL,69.22,-51.1,37.4,86,100,6.93,overcast clouds
135,Guane,CU,22.2,-84.09,83.48,73,8,5.44,clear sky
136,Verkhnevilyuysk,RU,63.45,120.32,44.06,85,8,3.27,clear sky
137,Kajaani,FI,64.23,27.73,50.0,93,20,6.93,few clouds
138,Muisne,EC,0.6,-80.03,78.8,78,75,10.29,broken clouds
139,Noumea,NC,-22.28,166.46,73.99,73,100,3.36,overcast clouds
140,Bermejo,AR,-32.88,-68.8,59.0,44,40,4.0,scattered clouds
141,Yellowknife,CA,62.46,-114.35,48.2,61,75,6.93,broken clouds
142,Cidreira,BR,-30.18,-50.21,58.96,93,100,18.77,overcast clouds
143,Soyo,AO,-6.13,12.37,72.88,90,61,8.61,broken clouds
144,Oktyabrskoye,RU,43.06,44.74,64.4,93,100,4.47,overcast clouds
145,Amahai,ID,-3.33,128.92,78.1,86,98,4.56,overcast clouds
146,Mnogovershinnyy,RU,53.94,139.92,54.21,100,100,2.39,overcast clouds
147,Ribeira Grande,PT,38.52,-28.7,69.1,74,11,25.88,few clouds
148,Guilin,CN,25.28,110.29,77.0,94,90,4.47,mist
149,Gusau,NG,12.16,6.66,72.23,91,98,3.11,overcast clouds
150,Vostok,RU,46.49,135.88,64.63,70,100,1.83,overcast clouds
151,Cockburn Town,TC,21.46,-71.14,84.2,70,40,8.05,scattered clouds
152,Ust-Koksa,RU,50.27,85.61,39.97,77,100,1.97,overcast clouds
153,Port Elizabeth,ZA,-33.92,25.57,57.2,100,90,10.29,light intensity drizzle
154,Muros,ES,42.78,-9.06,57.99,76,1,6.93,clear sky
155,San Vicente,AR,-26.62,-54.13,66.69,88,81,5.32,light rain
156,Fort Nelson,CA,58.81,-122.7,53.6,66,75,2.24,broken clouds
157,Farsund,NO,58.09,6.8,55.0,86,0,19.37,clear sky
158,San Policarpo,PH,12.18,125.51,80.47,82,86,2.98,overcast clouds
159,Clarksdale,US,34.2,-90.57,90.0,38,38,0.2,scattered clouds
160,Half Moon Bay,US,37.46,-122.43,104.0,27,1,17.22,haze
161,Yerbogachen,RU,61.28,108.01,50.76,93,100,6.58,light rain
162,Abu Samrah,SY,35.3,37.18,70.99,47,0,1.25,clear sky
163,Ban Nahin,LA,18.24,104.21,76.19,91,100,2.3,light rain
164,Severo-Kurilsk,RU,50.68,156.12,56.86,90,100,5.64,overcast clouds
165,Mwense,ZM,-10.38,28.7,65.59,31,0,9.55,clear sky
166,Sao Filipe,CV,14.9,-24.5,77.95,83,47,19.26,scattered clouds
167,Saskylakh,RU,71.92,114.08,41.38,78,64,5.01,broken clouds
168,Coihaique,CL,-45.58,-72.07,50.0,61,39,5.82,scattered clouds
169,Tucurui,BR,-3.77,-49.67,82.98,50,37,0.85,scattered clouds
170,Tura,IN,25.52,90.22,74.01,97,100,4.79,moderate rain
171,Iquitos,PE,-3.75,-73.25,87.8,66,40,6.93,scattered clouds
172,Hanzhong,CN,33.07,107.03,64.72,77,0,1.23,clear sky
173,Ixtapa,MX,20.7,-105.2,86.0,74,90,6.93,overcast clouds
174,Hermosillo,MX,29.07,-110.97,111.2,16,40,8.05,scattered clouds
175,Fukue,JP,32.69,128.84,75.92,85,100,38.41,overcast clouds
176,Bacalar,MX,18.67,-88.38,87.8,66,40,9.17,scattered clouds
177,Te Anau,NZ,-45.42,167.72,46.27,68,23,0.45,few clouds
178,Gobabis,NA,-22.45,18.97,61.97,31,3,14.07,clear sky
179,Iqaluit,CA,63.75,-68.51,51.8,40,75,11.41,broken clouds
180,Gloucester,GB,51.87,-2.24,57.0,90,25,1.99,scattered clouds
181,Caibarien,CU,22.52,-79.47,82.4,78,75,11.41,broken clouds
182,Mashhad,IR,36.3,59.61,64.4,25,0,4.7,clear sky
183,Camapua,BR,-19.53,-54.04,83.01,18,68,3.06,broken clouds
184,Bahia Honda,CU,22.9,-83.16,81.99,74,2,9.84,clear sky
185,Flinders,AU,-34.58,150.86,66.0,76,0,8.99,clear sky
186,Lupiro,TZ,-8.38,36.67,69.46,69,22,5.82,few clouds
187,Auki,SB,-8.77,160.7,83.32,74,39,2.33,light rain
188,Blois,FR,47.58,1.33,53.01,87,5,3.53,clear sky
189,Truth Or Consequences,US,33.13,-107.25,93.2,18,1,10.42,clear sky
190,Caravelas,BR,-17.71,-39.25,72.01,87,27,5.73,scattered clouds
191,Quelimane,MZ,-17.88,36.89,69.8,77,20,4.7,few clouds
192,Grand Forks,US,47.93,-97.03,71.6,30,75,24.16,broken clouds
193,Salinopolis,BR,-0.61,-47.36,80.08,80,20,13.62,few clouds
194,Bambous Virieux,MU,-20.34,57.76,69.8,88,75,5.82,light intensity shower rain
195,Hasaki,JP,35.73,140.83,82.4,88,75,9.17,shower rain
196,Athabasca,CA,54.72,-113.29,53.11,59,98,5.39,overcast clouds
197,Ziro,IN,27.63,93.83,57.94,100,96,1.16,overcast clouds
198,Palmer,US,42.16,-72.33,78.8,39,40,4.7,scattered clouds
199,Vardo,NO,70.37,31.11,48.2,87,62,9.17,broken clouds
200,Netarhat,IN,23.48,84.27,68.58,98,100,2.06,overcast clouds
201,Peachland,CA,49.77,-119.74,86.0,33,6,3.0,clear sky
202,Faanui,PF,-16.48,-151.75,78.13,77,56,11.74,light rain
203,Sotouboua,TG,8.57,0.98,70.03,95,100,2.68,overcast clouds
204,San Pedro De Uraba,CO,8.28,-76.38,86.0,74,40,4.7,scattered clouds
205,Alice Springs,AU,-23.7,133.88,75.0,11,0,8.05,clear sky
206,Nome,US,64.5,-165.41,54.0,53,75,21.92,broken clouds
207,Puerto Colombia,CO,10.99,-74.95,73.4,100,75,3.36,broken clouds
208,Coahuayana,MX,18.73,-103.68,77.0,83,75,17.22,thunderstorm
209,Coolum Beach,AU,-26.53,153.1,64.0,97,77,1.99,light rain
210,Saint George,US,37.1,-113.58,109.4,6,1,18.34,clear sky
211,Berbera,SO,10.44,45.01,88.18,65,1,1.61,clear sky
212,Praia Da Vitoria,PT,38.73,-27.07,69.01,77,75,21.54,broken clouds
213,Mount Gambier,AU,-37.83,140.77,62.6,36,56,21.92,broken clouds
214,Poli,TZ,-3.33,36.8,55.78,97,72,4.23,broken clouds
215,Cervena Voda,CZ,50.04,16.74,57.0,73,84,1.01,light rain
216,Champerico,GT,14.3,-91.92,80.6,94,75,9.17,thunderstorm with rain
217,Belyy Yar,RU,53.6,91.39,50.0,87,100,2.24,overcast clouds
218,Padang,ID,-0.95,100.35,76.12,77,67,4.74,broken clouds
219,Hithadhoo,MV,-0.6,73.08,82.04,77,100,11.65,overcast clouds
220,Kruisfontein,ZA,-34.0,24.73,53.01,93,0,3.33,clear sky
221,Torbay,CA,47.67,-52.73,60.01,71,75,9.17,broken clouds
222,Koshurnikovo,RU,54.17,93.3,43.18,89,100,1.77,overcast clouds
223,Porto Belo,BR,-27.16,-48.55,66.99,88,75,3.36,broken clouds
224,Fortuna,US,40.6,-124.16,89.01,54,1,9.17,clear sky
225,Hovd,MN,48.01,91.64,55.99,47,74,6.33,moderate rain
226,Ust-Maya,RU,60.42,134.53,48.81,95,82,2.8,light rain
227,Werda,BW,-25.27,23.28,66.07,27,0,14.9,clear sky
228,Zhucheng,CN,35.99,119.4,68.23,85,1,6.82,clear sky
229,Turukhansk,RU,65.82,87.98,38.79,89,69,3.13,broken clouds
230,Dingle,PH,11.0,122.67,80.08,84,57,1.14,broken clouds
231,Oranjemund,NA,-28.55,16.43,56.64,82,0,14.54,clear sky
232,Broome,US,42.25,-75.83,71.01,56,1,3.36,clear sky
233,Lompoc,US,34.64,-120.46,91.4,35,1,14.99,clear sky
234,Salas,ES,43.41,-6.26,62.6,77,40,2.24,scattered clouds
235,Yar-Sale,RU,66.83,70.83,37.67,77,0,1.05,clear sky
236,Riviere-Du-Loup,CA,47.83,-69.53,55.11,77,0,6.49,clear sky
237,Yarim,YE,14.3,44.38,58.37,59,11,2.06,few clouds
238,Comodoro Rivadavia,AR,-45.87,-67.5,51.8,57,0,2.24,clear sky
239,Khuzdar,PK,27.74,66.64,76.86,20,0,3.44,clear sky
240,Zhireken,RU,52.82,117.31,53.89,73,22,2.68,few clouds
241,Kultuk,RU,51.72,103.7,47.05,76,0,1.88,clear sky
242,Jinchang,CN,38.5,102.17,63.82,40,3,0.74,clear sky
243,Dekar,BW,-21.53,21.93,60.44,33,0,7.45,clear sky
244,Hirara,JP,24.8,125.28,80.6,83,20,4.7,few clouds
245,Savannah Bight,HN,16.45,-85.85,82.74,79,81,11.52,broken clouds
246,Hobyo,SO,5.35,48.53,76.08,81,9,20.87,clear sky
247,Roald,NO,62.58,6.13,51.8,93,16,4.7,light rain
248,Goderich,CA,43.75,-81.72,72.0,65,27,20.24,scattered clouds
249,Santa Helena De Goias,BR,-17.81,-50.6,78.94,23,8,5.12,clear sky
250,Pontes E Lacerda,BR,-15.23,-59.34,85.03,19,40,1.01,scattered clouds
251,Sovetskiy,RU,61.36,63.58,44.08,89,0,4.38,clear sky
252,Lancaster,US,40.25,-76.25,79.0,57,4,1.01,clear sky
253,Lavrentiya,RU,65.58,-171.0,44.47,71,94,19.15,overcast clouds
254,Daru,PG,-9.08,143.21,78.94,85,98,17.74,overcast clouds
255,Vanimo,PG,-2.67,141.3,82.72,70,67,7.56,broken clouds
256,Mezhdurechensk,RU,53.69,88.06,45.93,94,100,0.72,light rain
257,Kapuskasing,CA,49.42,-82.43,60.8,59,90,14.99,overcast clouds
258,Mahebourg,MU,-20.41,57.7,69.8,88,75,5.82,light intensity shower rain
259,Kedgwick,CA,47.64,-67.34,51.58,78,25,0.94,scattered clouds
260,Barranca,PE,-10.75,-77.77,60.4,82,59,7.02,broken clouds
261,Fare,PF,-16.7,-151.02,78.49,76,70,12.24,light rain
262,Vredendal,ZA,-31.67,18.5,58.41,63,0,6.22,clear sky
263,Rocha,UY,-34.48,-54.33,43.93,91,7,4.79,clear sky
264,Grand Gaube,MU,-20.01,57.66,66.99,88,92,5.99,moderate rain
265,Koutiala,ML,12.39,-5.46,73.18,94,100,4.81,moderate rain
266,Mayo,US,38.89,-76.51,79.0,47,1,6.93,clear sky
267,Dargaville,NZ,-35.93,173.88,57.76,87,44,11.65,light rain
268,Udachnyy,RU,66.42,112.4,30.2,100,90,4.47,fog
269,Henties Bay,NA,-22.12,14.28,54.0,92,0,5.01,clear sky
270,Pouebo,NC,-20.4,164.57,75.24,67,99,13.09,overcast clouds
271,Kasongo-Lunda,CD,-6.47,16.82,77.25,64,29,3.56,scattered clouds
272,Kijang,KR,35.24,129.21,77.0,88,90,63.31,heavy intensity rain
273,Beloha,MG,-25.17,45.05,62.31,82,0,13.09,clear sky
274,Lincoln,US,40.8,-96.67,93.99,36,1,6.93,clear sky
275,Kota Bahru,MY,6.13,102.24,75.2,94,20,3.36,few clouds
276,Marmashen,AM,40.83,43.78,59.0,67,5,1.12,clear sky
277,Sechura,PE,-5.56,-80.82,68.47,63,4,16.44,clear sky
278,Samarai,PG,-10.62,150.67,78.96,86,99,16.62,overcast clouds
279,The Pas,CA,53.83,-101.25,48.2,76,90,14.99,overcast clouds
280,Methoni,GR,36.82,21.7,77.0,68,0,1.12,clear sky
281,Mitsamiouli,KM,-11.38,43.28,74.71,72,0,3.89,clear sky
282,Tarata,BO,-17.62,-66.02,73.4,31,75,11.41,broken clouds
283,Pisco,PE,-13.7,-76.22,64.99,72,21,16.11,few clouds
284,Cabinda,AO,-5.55,12.2,73.18,90,48,7.31,scattered clouds
285,Tilichiki,RU,60.47,166.1,46.8,69,97,3.04,overcast clouds
286,Energeticheskiy,KZ,43.43,77.02,62.6,36,90,4.47,overcast clouds
287,Jibuti,DJ,11.5,42.5,86.0,79,1,8.63,clear sky
288,Masterton,NZ,-40.96,175.66,54.0,69,46,4.0,scattered clouds
289,Ostersund,SE,63.18,14.64,48.2,93,97,11.41,light rain
290,Malim,PH,7.45,123.43,81.09,79,89,4.54,overcast clouds
291,Praya,CV,14.92,-23.51,80.6,78,75,11.41,broken clouds
292,Kieta,PG,-6.22,155.63,84.25,66,8,3.89,light rain
293,Kavaratti,IN,10.57,72.64,82.76,78,99,25.55,overcast clouds
294,Kutum,SD,14.2,24.67,77.2,55,34,10.33,scattered clouds
295,College,US,64.86,-147.8,60.01,51,40,9.17,scattered clouds
296,Springbok,ZA,-29.66,17.89,52.9,45,0,5.41,clear sky
297,Gorontalo,ID,0.54,123.06,77.32,86,18,1.61,few clouds
298,Victoria,HK,22.29,114.16,84.0,86,61,1.99,light rain
299,At-Bashi,KG,41.17,75.81,48.16,53,73,1.9,broken clouds
300,Morro Bay,US,35.37,-120.85,114.01,13,0,10.51,clear sky
301,Ostrovnoy,RU,68.05,39.51,52.05,81,63,15.73,broken clouds
302,Jinka,ET,5.65,36.65,63.82,86,68,3.53,light rain
303,Pran Buri,TH,12.38,99.91,80.38,79,100,5.14,overcast clouds
304,Swan Hill,AU,-35.34,143.55,58.24,54,0,14.85,light rain
305,Narok,KE,-1.08,35.86,58.28,91,98,4.83,light rain
306,Saldanha,ZA,-33.01,17.94,51.8,76,0,2.24,clear sky
307,Grindavik,IS,63.84,-22.43,50.0,100,90,14.99,light intensity drizzle rain
308,Bayonet Point,US,28.33,-82.68,82.0,88,90,5.82,thunderstorm
309,Touros,BR,-5.2,-35.46,75.2,73,67,6.93,broken clouds
310,Alexandria,EG,31.22,29.96,78.8,74,40,8.05,scattered clouds
311,Acapulco,MX,16.86,-99.89,82.4,78,90,3.36,overcast clouds
312,Kostyantynivka,UA,48.53,37.71,64.22,28,35,8.63,scattered clouds
313,Tromso,NO,69.65,18.96,48.2,93,90,12.75,heavy intensity drizzle
314,Pangnirtung,CA,66.15,-65.71,40.57,70,55,2.46,broken clouds
315,Kozhva,RU,65.11,57.05,51.12,95,46,5.59,scattered clouds
316,Buala,SB,-8.14,159.59,84.67,69,24,7.0,light rain
317,Lebu,CL,-37.62,-73.65,49.71,86,0,10.98,clear sky
318,Marsa Matruh,EG,31.35,27.25,77.0,65,0,5.82,clear sky
319,Kisangani,CD,0.52,25.2,70.36,94,72,0.54,broken clouds
320,Gourcy,BF,13.22,-2.35,75.04,86,75,3.56,broken clouds
321,Grafton,US,42.21,-71.69,73.4,49,20,3.36,few clouds
322,Villa Del Rosario,CO,7.83,-72.47,84.2,74,40,9.17,scattered clouds
323,Saint-Augustin,CA,51.23,-58.65,56.3,67,19,10.04,few clouds
324,San Jeronimo,PE,-11.95,-75.28,59.34,43,82,6.02,broken clouds
325,Hannibal,US,39.71,-91.36,87.8,43,1,17.22,clear sky
326,Serra Negra,BR,-22.61,-46.7,82.4,23,0,3.15,clear sky
327,Buyukcavuslu,TR,41.24,28.06,64.4,88,0,8.05,clear sky
328,Revelstoke,CA,50.98,-118.2,80.6,34,75,8.05,broken clouds
329,Arman,RU,59.7,150.17,50.41,75,98,1.36,overcast clouds
330,Westport,US,41.14,-73.36,75.99,67,72,8.1,broken clouds
331,Abrau-Dyurso,RU,44.69,37.59,64.4,88,40,4.47,scattered clouds
332,Tawau,MY,4.25,117.89,75.2,94,20,4.7,few clouds
333,Luderitz,NA,-26.65,15.16,58.98,69,0,18.21,clear sky
334,Hokitika,NZ,-42.72,170.97,56.5,50,0,3.69,clear sky
335,Durban,ZA,-29.86,31.03,62.6,82,20,1.12,few clouds
336,Dubrovnik,HR,42.65,18.09,68.0,77,0,6.93,clear sky
337,Erenhot,CN,43.65,111.98,62.82,65,20,8.77,few clouds
338,Parambu,BR,-6.21,-40.69,73.9,41,12,2.95,few clouds
339,Sinegorskiy,RU,48.01,40.84,68.85,34,85,9.13,overcast clouds
340,Vao,NC,-22.67,167.48,71.11,78,100,16.62,overcast clouds
341,Khatanga,RU,71.97,102.5,39.65,80,29,4.29,scattered clouds
342,Klaksvik,FO,62.23,-6.59,50.0,100,100,16.11,light rain
343,Jalu,LY,29.03,21.55,76.89,56,0,10.2,clear sky
344,Warrnambool,AU,-38.38,142.48,57.0,67,20,15.01,few clouds
345,Saint Anthony,US,45.02,-93.22,82.4,39,1,18.34,clear sky
346,Kalmunai,LK,7.42,81.82,78.67,71,98,4.85,overcast clouds
347,Kahului,US,20.89,-156.47,89.6,43,20,20.8,few clouds
348,Singapore,SG,1.29,103.85,78.8,94,40,5.1,scattered clouds
349,Paternion,AT,46.71,13.64,57.0,96,67,1.01,moderate rain
350,Pokhara,NP,28.23,83.98,69.96,77,20,2.68,few clouds
351,Sadri,IN,25.18,73.43,78.91,76,74,5.88,broken clouds
352,Wanning,CN,18.8,110.4,81.84,83,100,8.61,overcast clouds
353,Dubbo,AU,-32.25,148.62,59.0,72,0,16.11,clear sky
354,Kayes,ML,14.0,-11.0,76.28,88,82,3.29,broken clouds
355,Thinadhoo,MV,0.53,72.93,82.54,73,100,7.78,light rain
356,Carnduff,CA,49.17,-101.8,62.01,43,65,18.01,broken clouds
357,Kendari,ID,-3.94,122.5,75.69,87,82,3.91,broken clouds
358,Nipawin,CA,53.37,-104.0,51.8,81,40,12.75,scattered clouds
359,Sisimiut,GL,66.94,-53.67,39.79,71,21,15.73,few clouds
360,Rawson,AR,-43.3,-65.1,52.32,49,0,8.14,clear sky
361,Majene,ID,-3.54,118.97,78.33,83,57,9.89,broken clouds
362,Tuatapere,NZ,-46.13,167.68,45.0,72,13,11.01,few clouds
363,Bethel,US,41.37,-73.41,75.2,53,75,5.82,broken clouds
364,Ajaccio,FR,42.0,8.92,68.0,82,75,6.93,broken clouds
365,Batagay-Alyta,RU,67.8,130.41,43.5,79,98,7.34,overcast clouds
366,Taoudenni,ML,22.68,-3.98,96.33,21,46,9.86,scattered clouds
367,Parabel,RU,58.7,81.48,39.72,96,90,7.09,overcast clouds
368,Lasa,IT,46.62,10.7,51.8,100,40,5.82,light rain
369,Paamiut,GL,61.99,-49.67,44.47,94,100,5.39,light rain
370,Kifri,IQ,34.7,44.97,87.84,13,0,6.51,clear sky
371,Vad,RU,55.53,44.21,55.56,76,59,6.06,broken clouds
372,Harrismith,ZA,-28.27,29.13,50.85,60,42,0.94,scattered clouds
373,Les Cayes,HT,18.2,-73.75,81.88,75,99,4.18,overcast clouds
374,Camacha,PT,33.08,-16.33,71.6,83,20,1.12,few clouds
375,Yumen,CN,40.28,97.2,58.87,34,1,10.87,clear sky
376,Alamogordo,US,32.9,-105.96,91.4,19,1,4.7,clear sky
377,Kirando,TZ,-7.42,30.6,77.79,41,70,7.49,broken clouds
378,Santa Fe,AR,-31.63,-60.7,62.01,62,98,4.0,overcast clouds
379,Port Hedland,AU,-20.32,118.57,66.2,88,28,10.29,scattered clouds
380,Uruzgan,AF,32.83,66.0,59.52,28,0,6.46,clear sky
381,Eraclea,IT,45.58,12.68,71.6,88,40,4.7,scattered clouds
382,San Andres,CO,12.58,-81.7,87.8,70,40,8.05,scattered clouds
383,Saint-Georges,GD,12.06,-61.75,86.0,70,20,11.41,few clouds
384,Saint-Pierre,RE,-21.34,55.48,66.2,72,0,6.93,clear sky
385,Nuuk,GL,64.18,-51.72,41.0,86,100,9.17,overcast clouds
386,Wasilla,US,61.58,-149.44,62.6,41,1,8.05,clear sky
387,Bowen,AU,-20.02,148.23,71.6,73,40,12.75,scattered clouds
388,Oktyabrskiy,RU,54.48,53.47,49.3,82,40,2.28,scattered clouds
389,Gramesti,RO,47.92,26.15,63.0,67,0,4.7,light rain
390,Adrar,MR,20.5,-10.07,92.61,33,19,7.29,few clouds
391,Seminole,US,28.71,-81.21,88.0,81,56,4.0,broken clouds
392,Skjervoy,NO,70.03,20.97,50.32,91,100,14.72,overcast clouds
393,Somanda,TZ,-3.37,33.95,69.93,53,61,6.15,broken clouds
394,Nieuw Amsterdam,SR,5.88,-55.08,82.0,78,40,5.82,thunderstorm
395,Luau,AO,-10.71,22.22,69.62,25,0,3.62,clear sky
396,Kirakira,SB,-10.45,161.92,78.85,86,94,13.82,overcast clouds
397,Sorong,ID,-0.88,131.25,77.49,88,100,9.57,overcast clouds
398,Oyama,JP,36.3,139.8,81.0,88,75,6.93,light intensity shower rain
399,Vanavara,RU,60.34,102.28,43.68,86,100,0.43,overcast clouds
400,Moerai,PF,-22.43,-151.33,69.93,83,99,14.34,overcast clouds
401,Palkonda,IN,18.6,83.75,77.74,89,57,0.54,broken clouds
402,Northam,GB,51.03,-4.22,57.99,89,83,3.0,broken clouds
403,Brae,GB,60.4,-1.35,50.0,81,98,10.29,overcast clouds
404,Tanout,NE,14.97,8.89,83.3,56,65,11.21,light rain
405,Kaitangata,NZ,-46.28,169.85,53.01,62,22,4.0,few clouds
406,Nanortalik,GL,60.14,-45.24,44.4,93,100,7.87,light rain
407,Verkhniy Fiagdon,RU,42.83,44.31,64.4,93,99,4.47,light rain
408,Aykhal,RU,66.0,111.5,30.2,100,90,4.47,fog
409,Luganville,VU,-15.53,167.17,79.72,76,64,13.73,broken clouds
410,Lubao,PH,14.92,120.55,78.8,88,75,3.36,broken clouds
411,Pyapon,MM,16.28,95.68,78.85,90,97,3.89,very heavy rain
412,Tigzirt,DZ,36.89,4.12,72.37,75,0,8.81,clear sky
413,Katsuura,JP,35.13,140.3,82.4,94,75,3.36,broken clouds
414,Trelleborg,SE,55.38,13.16,54.0,81,0,8.05,clear sky
415,Itamarandiba,BR,-17.86,-42.86,64.44,60,1,4.0,clear sky
416,Jatai,BR,-17.88,-51.71,77.61,22,0,3.44,clear sky
417,Bimbo,CF,4.26,18.42,75.2,94,20,2.24,few clouds
418,Magoula,GR,38.08,23.52,77.0,36,0,5.82,clear sky
419,Mehamn,NO,71.04,27.85,50.0,87,75,236.0,moderate rain
420,Santa,PH,17.49,120.43,79.75,84,99,3.94,overcast clouds
421,Ponta Delgada,PT,37.73,-25.67,68.0,77,40,17.22,light intensity shower rain
422,Waingapu,ID,-9.66,120.26,75.54,78,14,6.02,few clouds
423,Tonj,SS,7.27,28.68,69.55,97,88,4.56,light rain
424,Inta,RU,66.03,60.17,52.59,91,32,8.68,scattered clouds
425,Tezu,IN,27.92,96.17,75.6,77,100,1.9,overcast clouds
426,Payson,US,40.04,-111.73,97.0,17,1,5.82,clear sky
427,Pokaran,IN,26.92,71.92,86.61,61,0,9.86,clear sky
428,Tiznit,MA,29.58,-9.5,83.8,35,0,1.16,clear sky
429,Latung,PH,5.5,120.88,83.43,71,21,4.56,few clouds
430,Buchanan,LR,5.88,-10.05,76.35,87,96,9.78,light rain
431,Maragogi,BR,-9.01,-35.22,73.18,79,0,8.97,clear sky
432,Verkhoyansk,RU,67.54,133.38,47.82,73,100,11.97,overcast clouds
433,Moi,NO,58.46,6.55,55.0,86,0,7.0,clear sky
434,Bosaso,SO,11.28,49.18,88.59,57,16,5.73,few clouds
435,Svetlyy,RU,54.67,20.13,53.6,93,20,4.47,few clouds
436,Haukipudas,FI,65.18,25.35,48.2,100,76,4.7,broken clouds
437,Mildura,AU,-34.2,142.15,63.0,50,0,12.75,clear sky
438,Shubarshi,KZ,48.59,57.19,59.05,35,100,4.41,overcast clouds
439,Pangody,RU,65.85,74.49,47.12,86,89,2.08,overcast clouds
440,Kingisepp,RU,59.37,28.61,50.88,93,26,4.25,scattered clouds
441,Egvekinot,RU,66.32,-179.17,42.64,64,81,1.7,broken clouds
442,Mae Hong Son,TH,19.3,97.97,73.6,89,100,1.12,overcast clouds
443,Tukrah,LY,32.53,20.58,74.17,69,0,9.24,clear sky
444,Alofi,NU,-19.06,-169.92,77.0,50,75,20.8,broken clouds
445,Tadine,NC,-21.55,167.88,74.5,67,99,14.27,overcast clouds
446,Matara,LK,5.95,80.54,77.61,81,100,9.91,overcast clouds
447,Malanje,AO,-9.54,16.34,68.63,71,61,9.26,broken clouds
448,Naron,ES,43.52,-8.15,64.0,77,8,3.36,clear sky
449,Port Lincoln,AU,-34.73,135.87,66.79,34,100,28.1,overcast clouds
450,Santa Isabel Do Rio Negro,BR,-0.41,-65.02,77.77,83,91,0.54,overcast clouds
451,Misratah,LY,32.38,15.09,79.27,77,40,16.87,scattered clouds
452,Ahipara,NZ,-35.17,173.17,57.78,79,51,15.7,broken clouds
453,Lapeer,US,43.05,-83.32,69.8,64,1,13.87,clear sky
454,Tangi,PK,34.3,71.65,73.4,69,20,4.7,haze
455,Saint-Joseph,RE,-21.37,55.62,66.2,72,18,6.93,few clouds
456,Puerto Del Rosario,ES,28.5,-13.86,73.4,88,20,11.41,few clouds
457,Yenagoa,NG,4.92,6.26,74.46,89,100,4.61,overcast clouds
458,Carballo,ES,43.21,-8.69,60.8,77,8,3.36,clear sky
459,Neijiang,CN,29.58,105.06,69.22,95,2,4.54,clear sky
460,Nabire,ID,-3.37,135.48,79.93,84,95,2.84,overcast clouds
461,Samfya,ZM,-11.36,29.56,58.12,50,0,8.41,clear sky
462,Payo,ID,-3.75,103.64,72.36,90,100,1.19,overcast clouds
463,Kemalpasa,TR,38.43,27.42,77.0,44,0,8.05,clear sky
464,Jutai,BR,-5.18,-68.9,80.33,69,72,1.77,broken clouds
465,Emba,KZ,48.83,58.14,58.37,39,100,2.77,overcast clouds
466,Kudahuvadhoo,MV,2.67,72.89,82.4,74,100,9.42,light rain
467,San Francisco,US,37.77,-122.42,108.0,22,40,12.75,haze
468,Atherton,GB,53.52,-2.49,54.0,92,73,1.68,broken clouds
469,Altamira,BR,-3.2,-52.21,80.06,62,47,1.45,scattered clouds
470,Antsohihy,MG,-14.88,47.99,63.52,73,0,6.38,clear sky
471,Kalaleh,IR,37.38,55.49,71.6,56,0,2.24,clear sky
472,Praia,CV,14.92,-23.51,80.6,78,75,11.41,broken clouds
473,Bandarbeyla,SO,9.49,50.81,75.67,79,84,28.5,broken clouds
474,San Cosme Y Damian,PY,-27.32,-56.35,62.6,88,75,12.75,broken clouds
475,Asau,RO,46.43,26.4,55.99,95,0,2.33,light rain
476,Hamada,JP,34.88,132.08,77.85,81,94,34.56,overcast clouds
477,Brainerd,US,46.36,-94.2,72.0,53,1,16.11,clear sky
478,Mpanda,TZ,-6.37,31.04,71.56,39,68,2.19,broken clouds
479,Chaman,PK,30.92,66.45,64.47,25,0,4.09,clear sky
480,Marshall,US,34.38,-86.33,84.99,47,1,2.06,clear sky
481,Sept-Iles,CA,50.2,-66.38,53.6,76,20,5.82,few clouds
482,Morehead,US,37.27,-87.18,84.2,61,1,3.36,clear sky
483,Jacareacanga,BR,-6.22,-57.75,89.87,30,83,2.8,broken clouds
484,Lima,PE,-12.04,-77.03,60.8,77,90,11.41,overcast clouds
485,Antigonish,CA,45.62,-62.0,66.99,64,40,4.72,scattered clouds
486,Hadejia,NG,12.45,10.04,77.65,81,47,3.56,scattered clouds
487,Izhma,RU,65.01,53.91,54.52,89,76,5.39,broken clouds
488,Nantucket,US,41.28,-70.1,71.6,73,1,8.05,clear sky
489,Gidole,ET,5.65,37.37,57.61,98,67,4.52,light rain
490,Verkhniye Tatyshly,RU,56.29,55.86,48.87,90,90,5.14,overcast clouds
491,Sorland,NO,67.67,12.69,51.21,81,100,4.25,overcast clouds
492,Impfondo,CG,1.64,18.07,71.04,95,100,1.72,overcast clouds
493,The Valley,AI,18.22,-63.06,86.0,70,40,8.05,shower rain
494,Chumikan,RU,54.72,135.31,53.71,93,96,6.44,overcast clouds
495,Toora-Khem,RU,52.47,96.11,39.88,83,81,0.87,broken clouds
496,Puerto Leguizamo,CO,-0.19,-74.78,79.48,77,54,1.01,broken clouds
497,Chara,RU,56.91,118.26,60.08,68,8,0.47,clear sky
498,Obera,AR,-27.49,-55.12,64.54,81,58,6.58,broken clouds
499,Sao Joao Da Barra,BR,-21.64,-41.05,73.31,84,33,18.99,scattered clouds
500,Aklavik,CA,68.22,-135.01,46.4,47,20,5.82,few clouds
501,Collie,AU,-33.37,116.15,46.0,84,20,3.0,light rain
502,Havoysund,NO,71.0,24.66,50.0,93,75,21.92,light intensity drizzle
503,Olafsvik,IS,64.89,-23.71,50.05,91,99,19.39,overcast clouds
504,Whitehorse,CA,60.72,-135.05,57.99,33,20,5.82,few clouds
505,Lata,PT,40.16,-8.33,71.01,88,0,2.24,clear sky
506,Zaragoza,ES,41.66,-0.88,64.4,55,1,25.28,clear sky
507,Chapleau,CA,47.84,-83.4,60.8,59,90,18.34,overcast clouds
508,Ritchie,ZA,-29.04,24.6,55.4,87,0,4.7,clear sky
509,Souillac,MU,-20.52,57.52,69.8,88,75,5.82,light intensity shower rain
510,Aldan,RU,58.6,125.39,49.71,85,64,2.08,broken clouds
511,Kursk,RU,51.73,36.19,63.37,42,40,4.99,scattered clouds
512,Harper,LR,4.38,-7.72,76.51,84,97,8.75,overcast clouds
513,Boende,CD,-0.22,20.87,70.5,94,45,0.78,light rain
514,Jablah,SY,35.36,35.93,73.4,78,0,5.82,clear sky
515,Belawan,ID,3.78,98.68,75.9,91,100,5.35,overcast clouds
516,Santa Marta,CO,11.24,-74.2,77.0,88,83,11.83,broken clouds
517,Biryukove,UA,47.96,39.74,69.8,32,98,11.18,overcast clouds
518,Byron Bay,AU,-28.65,153.62,64.4,77,90,8.05,overcast clouds
519,Voyvozh,RU,62.89,54.96,49.91,96,29,3.83,scattered clouds
520,Washington,US,47.5,-120.5,97.0,15,1,4.7,clear sky
521,Plouzane,FR,48.38,-4.62,55.4,93,90,2.24,fog
522,Clearlake,US,38.96,-122.63,111.0,16,0,1.99,clear sky
523,North Port,US,27.04,-82.24,82.99,93,88,4.97,overcast clouds
524,Dunedin,NZ,-45.87,170.5,53.01,60,4,13.0,clear sky
525,Saint-Francois,FR,46.42,3.91,52.0,76,43,4.7,scattered clouds
526,Nouna,BF,12.73,-3.87,73.94,90,97,6.53,overcast clouds
527,Shirokiy,RU,49.76,129.52,59.77,89,0,2.59,clear sky
528,Jardim,BR,-21.48,-56.14,82.58,27,95,2.64,overcast clouds
529,Gimli,CA,50.63,-96.99,57.99,99,91,15.99,overcast clouds
530,New Agutaya,PH,10.56,119.31,82.89,73,97,0.36,overcast clouds
531,Broken Hill,AU,-31.95,141.43,57.2,44,0,10.29,clear sky
532,Narrabri,AU,-30.32,149.78,63.0,67,0,5.82,clear sky
533,Nyrob,RU,60.73,56.72,48.97,94,75,1.63,broken clouds
534,Salym,RU,60.06,71.48,42.42,95,83,6.8,broken clouds
535,Avera,US,33.19,-82.53,86.0,35,1,5.82,clear sky
536,Beaverlodge,CA,55.22,-119.44,53.6,66,90,2.24,overcast clouds
537,Nadvoitsy,RU,63.87,34.32,51.15,90,57,5.23,broken clouds
538,Fairbanks,US,64.84,-147.72,60.01,51,1,6.93,clear sky
539,Owando,CG,-0.48,15.9,72.39,88,98,2.19,overcast clouds
540,Hof,DE,50.32,11.92,48.0,88,69,1.01,broken clouds
541,Vila,PT,42.03,-8.16,60.01,79,0,5.99,clear sky
542,Caconda,AO,-13.73,15.07,54.5,78,18,1.54,few clouds
543,Macherla,IN,16.48,79.43,77.99,87,0,5.01,clear sky
544,Lundazi,ZM,-12.29,33.18,58.64,58,76,7.52,broken clouds
545,Bilibino,RU,68.05,166.44,41.79,65,0,3.74,clear sky
546,Mana,GF,5.66,-53.78,78.8,87,95,9.62,overcast clouds
547,Boa Vista,BR,2.82,-60.67,80.6,74,75,6.93,shower rain
548,Emerald,AU,-23.53,148.17,70.0,64,3,11.41,clear sky
549,Fort Abbas,PK,29.19,72.85,90.12,47,0,4.68,clear sky
550,Itaituba,BR,-4.28,-55.98,84.63,40,34,0.49,scattered clouds
551,Macara,EC,-4.38,-79.95,80.98,38,18,8.25,few clouds
552,Castilho,BR,-20.87,-51.49,80.4,21,65,5.99,broken clouds
553,Roblin,CA,51.23,-101.36,53.42,58,89,18.57,overcast clouds
554,Villaviciosa,ES,43.48,-5.44,64.0,75,96,4.79,overcast clouds
555,Naqadeh,IR,36.96,45.39,70.57,24,0,5.77,clear sky
556,Bodden Town,KY,19.28,-81.25,87.01,89,20,4.7,light intensity shower rain
557,Vestmannaeyjar,IS,63.44,-20.27,51.8,93,90,23.04,drizzle
558,Presidencia Roque Saenz Pena,AR,-26.79,-60.44,61.09,76,100,7.99,overcast clouds
559,Tripoli,LY,32.88,13.19,82.92,59,80,11.03,broken clouds
560,Kyabram,AU,-36.32,145.05,55.99,62,0,1.99,clear sky
561,Tuxtepec,MX,18.1,-96.12,80.74,90,100,4.74,overcast clouds
562,Kokkola,FI,63.84,23.13,53.01,100,100,8.05,overcast clouds
563,Levelek,HU,47.96,21.99,66.2,82,23,10.29,light rain
564,Mossendjo,CG,-2.95,12.73,71.38,86,70,4.59,broken clouds
565,Zhuanghe,CN,39.7,122.99,73.99,81,100,1.01,overcast clouds
566,Sembe,CG,1.65,14.58,70.05,91,77,2.01,light rain
567,Banda Aceh,ID,5.56,95.32,78.21,72,100,5.37,overcast clouds
568,Ortona,IT,42.35,14.4,68.0,77,0,4.7,clear sky
569,Nyurba,RU,63.28,118.33,44.53,86,32,4.29,scattered clouds
570,Manggar,ID,-2.88,108.27,80.31,81,100,7.31,overcast clouds
571,Rawlins,US,41.79,-107.24,89.6,7,1,24.16,clear sky
572,Bathsheba,BB,13.22,-59.52,82.4,69,40,12.75,shower rain
573,Port Blair,IN,11.67,92.75,82.09,82,100,9.48,overcast clouds
574,Uni,RU,57.75,51.49,48.81,93,2,5.68,clear sky
575,Medicine Hat,CA,50.05,-110.67,59.0,62,90,5.82,overcast clouds
576,Jaisalmer,IN,26.91,70.92,84.52,68,0,14.65,clear sky
577,Saint-Gabriel,CA,46.3,-73.38,68.0,55,1,9.17,clear sky
578,Skender Vakuf,BA,44.49,17.38,62.6,93,0,2.24,clear sky
579,Channel-Port Aux Basques,CA,47.57,-59.14,57.54,83,0,9.82,clear sky
580,Ayan,RU,56.45,138.17,54.16,90,94,6.22,overcast clouds
581,Haines Junction,CA,60.75,-137.51,60.89,36,0,2.77,clear sky
582,Bucerias,MX,20.75,-105.33,86.0,74,90,6.93,overcast clouds
583,Roma,US,43.21,-75.46,73.4,40,1,3.78,clear sky
584,Aswan,EG,24.09,32.91,94.91,22,26,10.02,scattered clouds
585,Guangyuan,CN,32.44,105.82,68.0,69,0,2.77,clear sky
586,Bone,DE,51.97,12.14,54.0,84,1,3.87,clear sky
587,Halifax,CA,44.65,-63.57,69.01,65,24,1.99,few clouds
588,Minsk,BY,53.9,27.57,50.0,100,75,2.24,fog
589,Pangoa,PE,-12.12,-73.0,78.24,61,57,2.13,broken clouds
590,Plettenberg Bay,ZA,-34.05,23.37,56.84,85,7,5.91,clear sky
591,Constitucion,CL,-35.33,-72.42,52.3,81,0,9.98,clear sky
592,Chapais,CA,49.78,-74.85,55.4,66,40,4.7,scattered clouds
593,Minab,IR,27.15,57.08,80.6,74,0,0.29,clear sky
594,Moose Factory,CA,51.26,-80.61,57.2,71,90,8.05,light rain
595,Petropavlovsk-Kamchatskiy,RU,53.05,158.65,59.0,82,75,8.95,broken clouds
596,Rochegda,RU,62.8,43.25,58.98,96,100,7.72,overcast clouds
597,Banff,CA,51.18,-115.57,54.12,65,100,5.82,overcast clouds
598,Boyolangu,ID,-8.12,111.89,74.68,89,83,6.62,broken clouds
599,Ocos,GT,14.51,-92.19,84.2,89,75,9.17,broken clouds
600,Ugoofaaru,MV,5.67,73.0,82.18,77,100,12.57,heavy intensity rain
601,Bougouni,ML,11.42,-7.48,71.91,95,83,5.37,broken clouds
602,Poya,NC,-21.35,165.15,75.99,59,100,2.98,overcast clouds
603,Preobrazheniye,RU,42.9,133.91,68.76,66,100,11.43,moderate rain
604,Menongue,AO,-14.66,17.69,60.42,31,0,6.69,clear sky
605,Jining,CN,35.41,116.58,69.57,73,0,5.23,clear sky
606,Longyearbyen,SJ,78.22,15.64,39.2,93,75,5.82,light intensity drizzle
607,Stephenville,US,32.22,-98.2,89.6,46,40,10.29,scattered clouds
608,Maxixe,MZ,-23.86,35.35,66.72,69,42,4.72,scattered clouds
609,Vaitape,PF,-16.52,-151.75,78.94,75,59,11.86,light rain
610,Shimoda,JP,34.67,138.95,75.0,96,69,10.47,broken clouds
611,Alta Gracia,AR,-31.65,-64.43,59.0,62,40,9.17,scattered clouds
612,Greenville,US,35.61,-77.37,80.6,47,40,9.17,scattered clouds
613,Smithers,CA,54.78,-127.17,57.2,82,75,3.36,broken clouds
614,Belmonte,BR,-15.86,-38.88,73.4,88,75,6.93,broken clouds
615,Ormara,PK,25.21,64.64,81.77,82,0,20.49,clear sky
616,Tucumcari,US,35.17,-103.72,98.6,17,1,14.99,clear sky
617,Shitanjing,CN,39.23,106.34,65.62,35,49,3.11,scattered clouds
618,Zhanaozen,KZ,43.3,52.8,66.78,26,3,23.49,clear sky
619,Toamasina,MG,-18.17,49.38,64.4,93,75,6.93,shower rain
620,Brive-La-Gaillarde,FR,45.25,1.5,57.99,76,24,3.13,few clouds
621,Richards Bay,ZA,-28.78,32.04,64.11,82,81,9.53,broken clouds
622,Xining,CN,36.62,101.77,50.02,73,0,2.42,clear sky
623,Ilhabela,BR,-23.78,-45.36,70.16,89,15,3.58,few clouds
624,Alencon,FR,48.43,0.08,55.4,76,8,3.24,clear sky
625,Maningrida,AU,-12.07,134.27,75.25,72,64,11.36,broken clouds
626,Prince Rupert,CA,54.32,-130.32,59.0,93,90,3.36,mist
627,Safaga,EG,26.73,33.94,91.4,31,40,11.41,scattered clouds
628,Cairns,AU,-16.92,145.77,72.0,88,75,16.11,light intensity shower rain
629,Faya,SA,18.39,42.45,69.8,21,0,6.55,clear sky
630,Puerto Carreno,CO,6.19,-67.49,84.2,66,40,2.24,scattered clouds
631,Peniche,PT,39.36,-9.38,68.0,84,0,1.01,clear sky
632,Tianpeng,CN,30.99,103.94,73.99,39,23,1.45,few clouds
633,Termiz,UZ,37.22,67.28,68.0,19,0,13.87,clear sky
634,Outjo,NA,-20.12,16.15,66.76,27,31,9.08,scattered clouds
635,Nhamunda,BR,-2.19,-56.71,88.14,42,68,1.1,broken clouds
636,Stolin,BY,51.89,26.85,57.22,97,76,3.8,broken clouds
637,Catia La Mar,VE,10.6,-67.03,87.8,70,20,4.7,few clouds
638,Mao,ES,39.89,4.27,73.4,73,20,10.29,few clouds
639,Micheweni,TZ,-4.97,39.83,74.57,81,0,9.46,clear sky
640,Christchurch,NZ,-43.53,172.63,55.99,58,0,9.17,clear sky
641,Iquique,CL,-20.22,-70.14,60.8,72,90,10.29,overcast clouds
642,Luanda,AO,-8.84,13.23,71.6,94,75,3.36,broken clouds
643,Finca Blanco,PA,8.38,-82.87,75.2,94,75,5.82,thunderstorm with light rain
644,Mahanje,TZ,-9.93,35.33,57.67,66,22,2.19,few clouds
645,Muskogee,US,35.58,-95.33,87.8,58,1,12.75,clear sky
646,Prainha,BR,-1.8,-53.48,78.24,78,36,2.48,scattered clouds
647,Malvern,US,34.36,-92.81,88.0,43,1,6.93,clear sky
648,San Carlos De Bariloche,AR,-41.15,-71.31,55.4,28,0,9.17,clear sky
649,Waddan,LY,29.16,16.14,76.55,55,0,12.66,clear sky
650,Abonnema,NG,4.71,6.79,74.66,88,87,4.99,overcast clouds
651,Xinqing,CN,48.23,129.5,61.7,86,68,0.83,broken clouds
652,Dodge City,US,37.75,-100.02,98.6,20,1,20.8,clear sky
653,San Carlos Del Zulia,VE,9.0,-71.91,81.97,78,10,6.06,clear sky
654,Sarangani,PH,5.4,125.46,83.95,68,54,3.87,moderate rain
655,Lyuban,BY,52.8,28.0,56.61,94,82,4.81,broken clouds
656,Sibu,MY,2.3,111.82,73.4,100,40,2.24,scattered clouds
657,Parola,IN,20.88,75.12,79.5,85,81,2.08,broken clouds
658,Kungsbacka,SE,57.49,12.08,57.99,87,40,5.82,shower rain
659,Verkhnyaya Inta,RU,65.98,60.31,52.77,90,39,7.38,scattered clouds
660,Zyryanka,RU,65.75,150.85,46.56,91,100,16.02,moderate rain
661,Gainesville,US,29.65,-82.32,80.01,83,40,3.36,scattered clouds
662,Bemidji,US,47.47,-94.88,68.0,52,40,31.09,scattered clouds
663,Itatiba,BR,-23.01,-46.84,82.4,23,0,2.91,clear sky
664,Kabo,CF,7.7,18.63,68.02,98,87,1.16,overcast clouds
665,Bandar-E Lengeh,IR,26.56,54.88,86.56,64,0,8.88,clear sky
666,Alappuzha,IN,9.49,76.33,77.81,85,83,4.36,broken clouds
667,Tazovskiy,RU,67.47,78.7,46.83,95,97,4.99,overcast clouds
668,Kasama,ZM,-10.21,31.18,52.38,52,5,3.8,clear sky
669,Sadon,RU,42.85,44.0,64.4,93,93,4.47,light rain
670,Nara,JP,34.69,135.8,82.0,94,75,11.41,broken clouds
671,Novyy Urgal,RU,51.07,132.56,59.38,90,23,0.56,few clouds
672,Kampli,IN,15.4,76.62,75.88,85,21,10.02,few clouds
673,Kuusamo,FI,65.97,29.18,46.4,100,83,3.36,broken clouds
674,Surt,LY,31.21,16.59,77.9,78,0,11.9,clear sky
675,Troitsko-Pechorsk,RU,62.71,56.2,51.93,91,59,2.86,broken clouds
676,Kailua,US,21.4,-157.74,86.0,66,75,16.11,broken clouds
677,Glenwood Springs,US,39.55,-107.32,89.01,11,1,10.29,clear sky
678,Margate,GB,51.38,1.39,61.0,79,9,7.78,clear sky
679,Bichura,RU,50.59,107.6,47.98,85,0,1.86,clear sky
680,Linxia,CN,35.6,103.21,54.82,64,0,3.38,clear sky
681,Creel,MX,27.75,-107.63,68.59,53,3,10.25,clear sky
682,Pingyin,CN,36.28,116.45,79.0,68,0,2.51,clear sky
683,Nola,IT,40.92,14.53,69.8,83,0,1.12,clear sky
684,Springdale,US,36.19,-94.13,87.8,58,20,17.22,few clouds
685,Davila,PH,18.47,120.58,77.0,94,20,3.36,few clouds
686,Katima Mulilo,NA,-17.5,24.27,64.4,36,0,3.36,clear sky
687,San Patricio,MX,19.22,-104.7,89.6,75,75,11.41,broken clouds
688,Ilebo,CD,-4.32,20.58,72.81,89,72,1.28,broken clouds
689,Banjarmasin,ID,-3.32,114.59,77.0,94,40,2.42,scattered clouds
690,Nova Dubnica,SK,48.93,18.15,59.0,82,100,4.0,light rain
691,Nianzishan,CN,47.52,122.88,59.43,83,7,3.38,clear sky
692,Valea Dragului,RO,44.21,26.3,73.0,77,0,2.37,clear sky
693,Shache,CN,38.42,77.24,67.44,29,100,5.84,overcast clouds
694,Wamba,NG,8.93,8.6,70.79,94,61,2.75,broken clouds
695,Dinguiraye,GN,11.3,-10.72,71.1,97,100,2.93,moderate rain
696,Cradock,ZA,-32.16,25.62,54.82,79,60,2.53,broken clouds
697,Topolobampo,MX,25.6,-109.05,78.8,69,90,23.04,overcast clouds
698,Pahrump,US,36.21,-115.98,111.99,6,3,3.0,clear sky
699,Zhezkazgan,KZ,47.8,67.71,48.87,49,58,7.18,broken clouds
700,Kysyl-Syr,RU,63.9,122.76,44.98,79,0,8.14,clear sky
701,Anupgarh,IN,29.19,73.21,89.51,51,0,4.41,clear sky
702,Jiangdu,CN,32.43,119.56,78.01,74,0,10.13,clear sky
703,Portland,US,45.52,-122.68,90.0,35,20,10.29,smoke
704,Nalut,LY,30.33,10.85,82.26,29,34,13.87,scattered clouds
705,Wanaka,NZ,-44.7,169.15,46.99,65,1,1.99,clear sky
706,Marzuq,YE,14.4,46.47,79.12,50,45,3.47,scattered clouds
707,Ambon,ID,-3.7,128.18,79.0,14,94,3.0,moderate rain
708,Zhangye,CN,38.93,100.45,65.41,38,21,5.06,few clouds
709,Luebo,CD,-5.35,21.42,73.18,81,81,1.97,broken clouds
710,Veselynove,UA,47.36,31.23,69.55,49,0,5.41,clear sky
711,Bonoua,CI,5.27,-3.6,77.0,94,20,6.93,few clouds
712,Baykit,RU,61.67,96.37,40.91,82,31,1.52,scattered clouds
713,Rzhev,RU,56.26,34.33,61.0,97,100,5.64,light rain
714,Malartic,CA,48.13,-78.13,62.6,48,75,12.75,broken clouds
715,Viedma,AR,-40.81,-63.0,55.99,54,0,1.01,clear sky
716,Atar,MR,20.52,-13.05,92.7,34,100,1.92,light rain
717,Tokat,TR,40.42,36.58,52.61,100,19,2.59,few clouds
718,Ayr,GB,55.46,-4.63,55.4,87,20,5.82,few clouds
